{"nodes":[{"label":"Tor Line","x":247.90748596191406,"y":40.66225051879883,"id":"Tor Line","attributes":{"Modularity Class":"5","closeness":"0.120967741935","latitude":"55.6867243","name":"Tor Line","longitude":"12.5700724"},"color":"rgb(115,192,0)","size":12.75},{"label":"Netto (store)","x":47.19147872924805,"y":167.9865264892578,"id":"Netto (store)","attributes":{"Modularity Class":"3","closeness":"0.089605734767","latitude":"55.4565009","name":"Netto","longitude":"12.1818964"},"color":"rgb(223,137,255)","size":10.222222328186035},{"label":"Oticon","x":-150.9122772216797,"y":1.0260944366455078,"id":"Oticon","attributes":{"Modularity Class":"7","closeness":"0.0161290322581","latitude":"55.7158721","name":"Oticon","longitude":"12.3196104"},"color":"rgb(0,196,255)","size":4.300000190734863},{"label":"Burmeister \u0026 Wain","x":-309.6611633300781,"y":-381.581787109375,"id":"Burmeister \u0026 Wain","attributes":{"Modularity Class":"1","closeness":"0.0","latitude":"55.6867243","name":"Burmeister \u0026 Wain","longitude":"12.5700724"},"color":"rgb(255,85,132)","size":3.0},{"label":"Stena Line","x":292.0055236816406,"y":-25.227645874023438,"id":"Stena Line","attributes":{"Modularity Class":"5","closeness":"0.0672043010753","latitude":"57.7072326","name":"Stena Line","longitude":"11.9670171"},"color":"rgb(115,192,0)","size":8.416666984558105},{"label":"CFL Cargo Denmark","x":-437.0099182128906,"y":-229.15975952148438,"id":"CFL Cargo Denmark","attributes":{"Modularity Class":"4","closeness":"0.0568022440393","latitude":"54.8295003","name":"CFL Cargo Danmark","longitude":"9.3606529"},"color":"rgb(211,179,176)","size":7.578260898590088},{"label":"Jobindex","x":12.876670837402344,"y":-31.371164321899414,"id":"Jobindex","attributes":{"Modularity Class":"7","closeness":"0.0161290322581","latitude":"55.678016","name":"Jobindex A/S","longitude":"12.5326186"},"color":"rgb(0,196,255)","size":4.300000190734863},{"label":"Bilka","x":277.4940185546875,"y":172.82923889160156,"id":"Bilka","attributes":{"Modularity Class":"3","closeness":"0.0768049155146","latitude":"56.1136618","name":"Bilka","longitude":"10.1903165"},"color":"rgb(223,137,255)","size":9.190475463867188},{"label":"Salling (department store)","x":129.99395751953125,"y":152.29811096191406,"id":"Salling (department store)","attributes":{"Modularity Class":"3","closeness":"0.070126227209","latitude":"56.1496278","name":"Salling","longitude":"10.2134046"},"color":"rgb(223,137,255)","size":8.65217399597168},{"label":"Förde Reederei Seetouristik","x":465.7064514160156,"y":95.7174072265625,"id":"Förde Reederei Seetouristik","attributes":{"Modularity Class":"5","closeness":"0.0","latitude":"54.7833021","name":"Förde Reederei Seetouristik","longitude":"9.4333264"},"color":"rgb(115,192,0)","size":3.0},{"label":"Tøj \u0026 Sko","x":181.68759155273438,"y":266.17425537109375,"id":"Tøj \u0026 Sko","attributes":{"Modularity Class":"3","closeness":"0.055617352614","latitude":"55.670249","name":"Tøj \u0026 Sko","longitude":"10.3333283"},"color":"rgb(223,137,255)","size":7.482758522033691},{"label":"DFDS Seaways","x":298.2408447265625,"y":18.900625228881836,"id":"DFDS Seaways","attributes":{"Modularity Class":"5","closeness":"0.0864055299539","latitude":"55.6867243","name":"DFDS Seaways","longitude":"12.5700724"},"color":"rgb(115,192,0)","size":9.964284896850586},{"label":"Fællesforeningen for Danmarks Brugsforeninger","x":36.482486724853516,"y":289.2190246582031,"id":"Fællesforeningen for Danmarks Brugsforeninger","attributes":{"Modularity Class":"3","closeness":"0.0718475073314","latitude":"55.6867243","name":"FDB","longitude":"12.5700724"},"color":"rgb(223,137,255)","size":8.790908813476562},{"label":"Universal Robots","x":-138.94268798828125,"y":44.06272888183594,"id":"Universal Robots","attributes":{"Modularity Class":"7","closeness":"0.0215053763441","latitude":"55.3997225","name":"Universal Robots","longitude":"10.3852104"},"color":"rgb(0,196,255)","size":4.733333587646484},{"label":"Vestas","x":78.58430480957031,"y":92.34387969970703,"id":"Vestas","attributes":{"Modularity Class":"0","closeness":"0.0973502304147","latitude":"56.1496278","name":"Vestas Wind Systems A/S","longitude":"10.2134046"},"color":"rgb(0,189,148)","size":10.846428871154785},{"label":"A-Z (store)","x":273.08343505859375,"y":248.8862762451172,"id":"A-Z (store)","attributes":{"Modularity Class":"3","closeness":"0.0537634408602","latitude":"55.670249","name":"A-Z","longitude":"10.3333283"},"color":"rgb(223,137,255)","size":7.333333492279053},{"label":"Heljan","x":-364.6076965332031,"y":-267.9144287109375,"id":"Heljan","attributes":{"Modularity Class":"2","closeness":"0.0493951612903","latitude":"55.4840594","name":"Heljan A/S","longitude":"10.2553321"},"color":"rgb(76,70,62)","size":6.981249809265137},{"label":"Kvickly","x":28.690820693969727,"y":335.42987060546875,"id":"Kvickly","attributes":{"Modularity Class":"3","closeness":"0.0","latitude":"55.6586018","name":"Kvickly","longitude":"12.3562849"},"color":"rgb(223,137,255)","size":3.0},{"label":"Lion Ferry","x":318.36968994140625,"y":-48.85068893432617,"id":"Lion Ferry","attributes":{"Modularity Class":"5","closeness":"0.0533681214421","latitude":"56.6739826","name":"Lion Ferry Ab","longitude":"12.8574827"},"color":"rgb(115,192,0)","size":7.301470756530762},{"label":"Novozymes","x":-158.968017578125,"y":-213.04747009277344,"id":"Novozymes","attributes":{"Modularity Class":"6","closeness":"0.050041356493","latitude":"55.7583936","name":"Novozymes A/S","longitude":"12.4573112"},"color":"rgb(255,136,5)","size":7.033332824707031},{"label":"Irma (supermarket)","x":7.176252365112305,"y":255.6051788330078,"id":"Irma (supermarket)","attributes":{"Modularity Class":"3","closeness":"0.0","latitude":"55.677004","name":"Irma A/S","longitude":"12.434719"},"color":"rgb(223,137,255)","size":3.0},{"label":"DSB Øresund","x":-375.15081787109375,"y":-371.1573791503906,"id":"DSB Øresund","attributes":{"Modularity Class":"2","closeness":"0.0483870967742","latitude":"55.6867243","name":"DSB Øresund","longitude":"12.5700724"},"color":"rgb(76,70,62)","size":6.899999618530273},{"label":"Banedanmark","x":-409.4484558105469,"y":-279.6238708496094,"id":"Banedanmark","attributes":{"Modularity Class":"2","closeness":"0.0414746543779","latitude":"55.6867243","name":"Banedanmark - Rail Net Denmark","longitude":"12.5700724"},"color":"rgb(76,70,62)","size":6.342857360839844},{"label":"HH-Ferries","x":284.21173095703125,"y":-63.5065803527832,"id":"HH-Ferries","attributes":{"Modularity Class":"5","closeness":"0.0589861751152","latitude":"56.0441984","name":"HH-Ferries","longitude":"12.7040684"},"color":"rgb(115,192,0)","size":7.7542853355407715},{"label":"DONG Energy","x":2.977214813232422,"y":117.38269805908203,"id":"DONG Energy","attributes":{"Modularity Class":"0","closeness":"0.0161290322581","latitude":"55.565268","name":"DONG Energy","longitude":"9.7562169"},"color":"rgb(0,189,148)","size":4.300000190734863},{"label":"Maersk Line","x":201.15821838378906,"y":22.238433837890625,"id":"Maersk Line","attributes":{"Modularity Class":"3","closeness":"0.078064516129","latitude":"55.6867243","name":"Maersk Line","longitude":"12.5700724"},"color":"rgb(223,137,255)","size":9.291999816894531},{"label":"Føtex","x":194.98016357421875,"y":159.4412078857422,"id":"Føtex","attributes":{"Modularity Class":"3","closeness":"0.0","latitude":"56.1136618","name":"føtex","longitude":"10.1903165"},"color":"rgb(223,137,255)","size":3.0},{"label":"Maersk","x":151.9130859375,"y":110.05496978759766,"id":"Maersk","attributes":{"Modularity Class":"3","closeness":"0.115207373272","latitude":"55.6867243","name":"A.P. Møller – Mærsk A/S","longitude":"12.5700724"},"color":"rgb(223,137,255)","size":12.285714149475098},{"label":"Maersk Drilling","x":146.25424194335938,"y":35.09174346923828,"id":"Maersk Drilling","attributes":{"Modularity Class":"3","closeness":"0.070126227209","latitude":"55.6867243","name":"Maersk Drilling","longitude":"12.5700724"},"color":"rgb(223,137,255)","size":8.65217399597168},{"label":"Kattegatruten","x":436.47735595703125,"y":92.38594055175781,"id":"Kattegatruten","attributes":{"Modularity Class":"5","closeness":"0.0856261859583","latitude":"56.1496278","name":"Kattegatruten A/S","longitude":"10.2134046"},"color":"rgb(115,192,0)","size":9.901470184326172},{"label":"Euroway","x":317.5119323730469,"y":116.33692932128906,"id":"Euroway","attributes":{"Modularity Class":"5","closeness":"0.0860215053763","latitude":"55.6052931","name":"Euroway","longitude":"13.0001566"},"color":"rgb(115,192,0)","size":9.933333396911621},{"label":"Ceres Brewery","x":-305.3439025878906,"y":-355.5387268066406,"id":"Ceres Brewery","attributes":{"Modularity Class":"1","closeness":"0.0","latitude":"56.1496278","name":"Ceres Bryggeriet A/S","longitude":"10.2134046"},"color":"rgb(255,85,132)","size":3.0},{"label":"Safmarine","x":122.4137191772461,"y":66.34395599365234,"id":"Safmarine","attributes":{"Modularity Class":"3","closeness":"0.0","latitude":"55.6867243","name":"Safmarine","longitude":"12.5700724"},"color":"rgb(223,137,255)","size":3.0},{"label":"William Demant","x":-110.64569854736328,"y":14.178023338317871,"id":"William Demant","attributes":{"Modularity Class":"7","closeness":"0.0161290322581","latitude":"55.7158721","name":"William Demant Holding A/S","longitude":"12.3196104"},"color":"rgb(0,196,255)","size":4.300000190734863},{"label":"Midtjyske Jernbaner","x":-414.46875,"y":-451.89324951171875,"id":"Midtjyske Jernbaner","attributes":{"Modularity Class":"2","closeness":"0.0522580645161","latitude":"56.5486971","name":"Midtjyske Jernbaner A/S","longitude":"8.3046456"},"color":"rgb(76,70,62)","size":7.211999893188477},{"label":"Dansk Supermarked","x":156.578369140625,"y":198.77951049804688,"id":"Dansk Supermarked","attributes":{"Modularity Class":"3","closeness":"0.124069478908","latitude":"56.1136618","name":"Dansk Supermarked A/S","longitude":"10.1903165"},"color":"rgb(223,137,255)","size":13.0},{"label":"DSBFirst","x":-419.2655944824219,"y":-325.4508361816406,"id":"DSBFirst","attributes":{"Modularity Class":"2","closeness":"0.0483870967742","latitude":"55.6867243","name":"DSBFirst","longitude":"12.5700724"},"color":"rgb(76,70,62)","size":6.899999618530273},{"label":"Jeudan","x":-110.01567077636719,"y":-20.16419219970703,"id":"Jeudan","attributes":{"Modularity Class":"7","closeness":"0.0829493087558","latitude":"55.6867243","name":"Jeudan","longitude":"12.5700724"},"color":"rgb(0,196,255)","size":9.685714721679688},{"label":"Privatbanen Sønderjylland","x":-490.5856018066406,"y":-271.75018310546875,"id":"Privatbanen Sønderjylland","attributes":{"Modularity Class":"4","closeness":"0.0161290322581","latitude":"54.94062685","name":"Privatbanen Sønderjylland ApS","longitude":"8.86178921993"},"color":"rgb(211,179,176)","size":4.300000190734863},{"label":"Danske Bank","x":-24.06894874572754,"y":9.927234649658203,"id":"Danske Bank","attributes":{"Modularity Class":"7","closeness":"0.0","latitude":"55.6867243","name":"Danske Bank A/S","longitude":"12.5700724"},"color":"rgb(0,196,255)","size":3.0},{"label":"Frichs","x":-329.3357238769531,"y":-344.75653076171875,"id":"Frichs","attributes":{"Modularity Class":"1","closeness":"0.058064516129","latitude":"56.1496278","name":"Frichs","longitude":"10.2134046"},"color":"rgb(255,85,132)","size":7.679999828338623},{"label":"J. Lauritzen A/S","x":371.47003173828125,"y":35.952781677246094,"id":"J. Lauritzen A/S","attributes":{"Modularity Class":"5","closeness":"0.0860215053763","latitude":"55.6867243","name":"J. Lauritzen A/S","longitude":"12.5700724"},"color":"rgb(115,192,0)","size":9.933333396911621},{"label":"Odderbanen","x":-428.92974853515625,"y":-394.0807189941406,"id":"Odderbanen","attributes":{"Modularity Class":"2","closeness":"0.0725806451613","latitude":"55.975832","name":"A/S Hads-Ning Herreders Jernbane","longitude":"10.1513202"},"color":"rgb(76,70,62)","size":8.850000381469727},{"label":"DFDS","x":294.66046142578125,"y":73.15009307861328,"id":"DFDS","attributes":{"Modularity Class":"5","closeness":"0.113407258065","latitude":"55.6867243","name":"DFDS A/S","longitude":"12.5700724"},"color":"rgb(115,192,0)","size":12.140625},{"label":"Fakta","x":81.47587585449219,"y":257.8212890625,"id":"Fakta","attributes":{"Modularity Class":"3","closeness":"0.0957966764418","latitude":"55.6620096","name":"Fakta","longitude":"12.3607864"},"color":"rgb(223,137,255)","size":10.721212387084961},{"label":"Løgismose","x":-16.973526000976562,"y":198.41566467285156,"id":"Løgismose","attributes":{"Modularity Class":"3","closeness":"0.067296996663","latitude":"55.32459685","name":"Løgismose","longitude":"10.3472130556"},"color":"rgb(223,137,255)","size":8.424137115478516},{"label":"DSB (railway company)","x":-364.2099304199219,"y":-307.01898193359375,"id":"DSB (railway company)","attributes":{"Modularity Class":"2","closeness":"0.0645161290323","latitude":"55.6867243","name":"DSB","longitude":"12.5700724"},"color":"rgb(76,70,62)","size":8.199999809265137},{"label":"Mols-Linien","x":390.5704345703125,"y":87.20836639404297,"id":"Mols-Linien","attributes":{"Modularity Class":"5","closeness":"0.111972704715","latitude":"56.1997156","name":"Mols-Linien","longitude":"10.682053"},"color":"rgb(115,192,0)","size":12.024999618530273},{"label":"JN Data A/S","x":-37.09376525878906,"y":-147.74322509765625,"id":"JN Data A/S","attributes":{"Modularity Class":"7","closeness":"0.0322580645161","latitude":"56.169453","name":"JN Data A/S","longitude":"9.5495141"},"color":"rgb(0,196,255)","size":5.599999904632568},{"label":"NNIT","x":-257.8824768066406,"y":-213.3787078857422,"id":"NNIT","attributes":{"Modularity Class":"6","closeness":"0.0887096774194","latitude":"55.736468","name":"NNIT A/S","longitude":"12.5088728"},"color":"rgb(255,136,5)","size":10.149999618530273},{"label":"DADES","x":-79.25991821289062,"y":-56.81121063232422,"id":"DADES","attributes":{"Modularity Class":"7","closeness":"0.104516129032","latitude":"55.7718649","name":"DADES","longitude":"12.5051413"},"color":"rgb(0,196,255)","size":11.423999786376953},{"label":"TraXion","x":-498.0607604980469,"y":-228.01808166503906,"id":"TraXion","attributes":{"Modularity Class":"4","closeness":"0.0161290322581","latitude":"54.8295003","name":"TraXion A/S","longitude":"9.3606529"},"color":"rgb(211,179,176)","size":4.300000190734863},{"label":"Jyske Bank","x":14.628625869750977,"y":-88.32715606689453,"id":"Jyske Bank","attributes":{"Modularity Class":"7","closeness":"0.0322580645161","latitude":"56.169453","name":"Jyske Bank A/S","longitude":"9.5495141"},"color":"rgb(0,196,255)","size":5.599999904632568},{"label":"Waterfront Communications","x":-312.308349609375,"y":-288.76434326171875,"id":"Waterfront Communications","attributes":{"Modularity Class":"2","closeness":"0.0493951612903","latitude":"55.6867243","name":"Waterfront Communications","longitude":"12.5700724"},"color":"rgb(76,70,62)","size":6.981249809265137},{"label":"Novo A/S","x":-178.0505828857422,"y":-146.23757934570312,"id":"Novo A/S","attributes":{"Modularity Class":"6","closeness":"0.067296996663","latitude":"55.7336657","name":"Novo A/S","longitude":"12.5655408"},"color":"rgb(255,136,5)","size":8.424137115478516},{"label":"BioImage","x":-246.36839294433594,"y":-119.57784271240234,"id":"BioImage","attributes":{"Modularity Class":"6","closeness":"0.0473996050033","latitude":"55.736468","name":"BioImage","longitude":"12.5088728"},"color":"rgb(255,136,5)","size":6.820408344268799},{"label":"Novo Nordisk","x":-215.79359436035156,"y":-177.94761657714844,"id":"Novo Nordisk","attributes":{"Modularity Class":"6","closeness":"0.0527462946818","latitude":"55.7583936","name":"Novo Nordisk A/S","longitude":"12.4573112"},"color":"rgb(255,136,5)","size":7.251351356506348},{"label":"Alm. Brand","x":-81.79212951660156,"y":-96.38954162597656,"id":"Alm. Brand","attributes":{"Modularity Class":"7","closeness":"0.0","latitude":"55.6867243","name":"Alm. Brand","longitude":"12.5700724"},"color":"rgb(0,196,255)","size":3.0},{"label":"Arla Foods","x":-281.76568603515625,"y":-197.2119598388672,"id":"Arla Foods","attributes":{"Modularity Class":"6","closeness":"0.0","latitude":"56.1496278","name":"Arla Foods","longitude":"10.2134046"},"color":"rgb(255,136,5)","size":3.0},{"label":"Copenhagen Suborbitals","x":-299.1586608886719,"y":-400.3558349609375,"id":"Copenhagen Suborbitals","attributes":{"Modularity Class":"1","closeness":"0.0161290322581","latitude":"55.6927947","name":"Copenhagen Suborbitals","longitude":"12.6173108"},"color":"rgb(255,85,132)","size":4.300000190734863},{"label":"A2SEA","x":14.01655387878418,"y":82.05667114257812,"id":"A2SEA","attributes":{"Modularity Class":"0","closeness":"0.0161290322581","latitude":"55.565268","name":"A2SEA","longitude":"9.7562169"},"color":"rgb(0,189,148)","size":4.300000190734863},{"label":"Lemvigbanen","x":-494.0852355957031,"y":-416.24951171875,"id":"Lemvigbanen","attributes":{"Modularity Class":"2","closeness":"0.0522580645161","latitude":"56.5486971","name":"Vemb-Lemvig-Thyborøn","longitude":"8.3046456"},"color":"rgb(76,70,62)","size":7.211999893188477},{"label":"Nykredit","x":-41.87845993041992,"y":-92.90232849121094,"id":"Nykredit","attributes":{"Modularity Class":"7","closeness":"0.0","latitude":"55.6867243","name":"Nykredit","longitude":"12.5700724"},"color":"rgb(0,196,255)","size":3.0}],"edges":[{"source":"Dansk Supermarked","target":"Netto (store)","id":"91","attributes":{},"color":"rgb(223,137,255)","size":1.0},{"source":"Dansk Supermarked","target":"Maersk","id":"93","attributes":{},"color":"rgb(223,137,255)","size":1.0},{"source":"Kattegatruten","target":"Mols-Linien","id":"37","attributes":{},"color":"rgb(115,192,0)","size":1.0},{"source":"NNIT","target":"Novo Nordisk","id":"101","attributes":{},"color":"rgb(255,136,5)","size":1.0},{"source":"Lemvigbanen","target":"Odderbanen","id":"39","attributes":{},"color":"rgb(76,70,62)","size":1.0},{"source":"DADES","target":"Nykredit","id":"20","attributes":{},"color":"rgb(0,196,255)","size":1.0},{"source":"Copenhagen Suborbitals","target":"Burmeister \u0026 Wain","id":"32","attributes":{},"color":"rgb(255,85,132)","size":1.0},{"source":"Fællesforeningen for Danmarks Brugsforeninger","target":"Fakta","id":"86","attributes":{},"color":"rgb(223,137,255)","size":1.0},{"source":"DONG Energy","target":"A2SEA","id":"28","attributes":{},"color":"rgb(0,189,148)","size":1.0},{"source":"Jobindex","target":"Danske Bank","id":"83","attributes":{},"color":"rgb(0,196,255)","size":1.0},{"source":"Jyske Bank","target":"JN Data A/S","id":"89","attributes":{},"color":"rgb(0,196,255)","size":1.0},{"source":"DSB Øresund","target":"DSBFirst","id":"10","attributes":{},"color":"rgb(76,70,62)","size":1.0},{"source":"Dansk Supermarked","target":"Salling (department store)","id":"94","attributes":{},"color":"rgb(223,137,255)","size":1.0},{"source":"NNIT","target":"DSB (railway company)","id":"102","attributes":{},"color":"rgb(165,103,33)","size":1.0},{"source":"Lion Ferry","target":"Stena Line","id":"30","attributes":{},"color":"rgb(115,192,0)","size":1.0},{"source":"DADES","target":"Jeudan","id":"21","attributes":{},"color":"rgb(0,196,255)","size":1.0},{"source":"BioImage","target":"Novo Nordisk","id":"1","attributes":{},"color":"rgb(255,136,5)","size":1.0},{"source":"Mols-Linien","target":"DFDS","id":"26","attributes":{},"color":"rgb(115,192,0)","size":1.0},{"source":"Tor Line","target":"DFDS","id":"57","attributes":{},"color":"rgb(115,192,0)","size":1.0},{"source":"JN Data A/S","target":"Jyske Bank","id":"62","attributes":{},"color":"rgb(0,196,255)","size":1.0},{"source":"Kattegatruten","target":"Förde Reederei Seetouristik","id":"36","attributes":{},"color":"rgb(115,192,0)","size":1.0},{"source":"CFL Cargo Denmark","target":"Banedanmark","id":"70","attributes":{},"color":"rgb(143,124,119)","size":1.0},{"source":"Dansk Supermarked","target":"Bilka","id":"96","attributes":{},"color":"rgb(223,137,255)","size":1.0},{"source":"Stena Line","target":"Lion Ferry","id":"73","attributes":{},"color":"rgb(115,192,0)","size":1.0},{"source":"William Demant","target":"Oticon","id":"2","attributes":{},"color":"rgb(0,196,255)","size":1.0},{"source":"Frichs","target":"DSB (railway company)","id":"46","attributes":{},"color":"rgb(165,77,97)","size":1.0},{"source":"Midtjyske Jernbaner","target":"Lemvigbanen","id":"6","attributes":{},"color":"rgb(76,70,62)","size":1.0},{"source":"Maersk","target":"Bilka","id":"18","attributes":{},"color":"rgb(223,137,255)","size":1.0},{"source":"DADES","target":"Alm. Brand","id":"23","attributes":{},"color":"rgb(0,196,255)","size":1.0},{"source":"Salling (department store)","target":"Maersk","id":"68","attributes":{},"color":"rgb(223,137,255)","size":1.0},{"source":"DSB (railway company)","target":"Frichs","id":"5","attributes":{},"color":"rgb(165,77,97)","size":1.0},{"source":"JN Data A/S","target":"Nykredit","id":"61","attributes":{},"color":"rgb(0,196,255)","size":1.0},{"source":"Banedanmark","target":"DSB (railway company)","id":"35","attributes":{},"color":"rgb(76,70,62)","size":1.0},{"source":"J. Lauritzen A/S","target":"DFDS","id":"74","attributes":{},"color":"rgb(115,192,0)","size":1.0},{"source":"DADES","target":"Novo A/S","id":"22","attributes":{},"color":"rgb(127,166,130)","size":1.0},{"source":"DADES","target":"Danske Bank","id":"24","attributes":{},"color":"rgb(0,196,255)","size":1.0},{"source":"Lemvigbanen","target":"Midtjyske Jernbaner","id":"38","attributes":{},"color":"rgb(76,70,62)","size":1.0},{"source":"DSB Øresund","target":"DSB (railway company)","id":"9","attributes":{},"color":"rgb(76,70,62)","size":1.0},{"source":"Frichs","target":"Burmeister \u0026 Wain","id":"45","attributes":{},"color":"rgb(255,85,132)","size":1.0},{"source":"Jeudan","target":"DADES","id":"33","attributes":{},"color":"rgb(0,196,255)","size":1.0},{"source":"Odderbanen","target":"Lemvigbanen","id":"97","attributes":{},"color":"rgb(76,70,62)","size":1.0},{"source":"Bilka","target":"A-Z (store)","id":"51","attributes":{},"color":"rgb(223,137,255)","size":1.0},{"source":"CFL Cargo Denmark","target":"TraXion","id":"69","attributes":{},"color":"rgb(211,179,176)","size":1.0},{"source":"DFDS","target":"Maersk","id":"77","attributes":{},"color":"rgb(169,164,127)","size":1.0},{"source":"Tor Line","target":"Stena Line","id":"58","attributes":{},"color":"rgb(115,192,0)","size":1.0},{"source":"Mols-Linien","target":"Kattegatruten","id":"25","attributes":{},"color":"rgb(115,192,0)","size":1.0},{"source":"Novozymes","target":"Novo A/S","id":"48","attributes":{},"color":"rgb(255,136,5)","size":1.0},{"source":"Maersk","target":"Danske Bank","id":"19","attributes":{},"color":"rgb(111,166,255)","size":1.0},{"source":"Novo Nordisk","target":"Novo A/S","id":"41","attributes":{},"color":"rgb(255,136,5)","size":1.0},{"source":"Odderbanen","target":"DSB (railway company)","id":"98","attributes":{},"color":"rgb(76,70,62)","size":1.0},{"source":"Heljan","target":"DSB (railway company)","id":"29","attributes":{},"color":"rgb(76,70,62)","size":1.0},{"source":"Privatbanen Sønderjylland","target":"TraXion","id":"53","attributes":{},"color":"rgb(211,179,176)","size":1.0},{"source":"HH-Ferries","target":"Stena Line","id":"80","attributes":{},"color":"rgb(115,192,0)","size":1.0},{"source":"Odderbanen","target":"Midtjyske Jernbaner","id":"99","attributes":{},"color":"rgb(76,70,62)","size":1.0},{"source":"Midtjyske Jernbaner","target":"Odderbanen","id":"7","attributes":{},"color":"rgb(76,70,62)","size":1.0},{"source":"Waterfront Communications","target":"DSB (railway company)","id":"0","attributes":{},"color":"rgb(76,70,62)","size":1.0},{"source":"Vestas","target":"Maersk","id":"64","attributes":{},"color":"rgb(111,163,201)","size":1.0},{"source":"Mols-Linien","target":"J. Lauritzen A/S","id":"27","attributes":{},"color":"rgb(115,192,0)","size":1.0},{"source":"CFL Cargo Denmark","target":"Privatbanen Sønderjylland","id":"71","attributes":{},"color":"rgb(211,179,176)","size":1.0},{"source":"Universal Robots","target":"Oticon","id":"31","attributes":{},"color":"rgb(0,196,255)","size":1.0},{"source":"DFDS Seaways","target":"Stena Line","id":"44","attributes":{},"color":"rgb(115,192,0)","size":1.0},{"source":"Frichs","target":"Ceres Brewery","id":"47","attributes":{},"color":"rgb(255,85,132)","size":1.0},{"source":"Fakta","target":"Netto (store)","id":"54","attributes":{},"color":"rgb(223,137,255)","size":1.0},{"source":"Dansk Supermarked","target":"Tøj \u0026 Sko","id":"90","attributes":{},"color":"rgb(223,137,255)","size":1.0},{"source":"Løgismose","target":"Netto (store)","id":"66","attributes":{},"color":"rgb(223,137,255)","size":1.0},{"source":"A2SEA","target":"DONG Energy","id":"65","attributes":{},"color":"rgb(0,189,148)","size":1.0},{"source":"Fakta","target":"Fællesforeningen for Danmarks Brugsforeninger","id":"56","attributes":{},"color":"rgb(223,137,255)","size":1.0},{"source":"Euroway","target":"DFDS","id":"84","attributes":{},"color":"rgb(115,192,0)","size":1.0},{"source":"Jyske Bank","target":"Nykredit","id":"88","attributes":{},"color":"rgb(0,196,255)","size":1.0},{"source":"Netto (store)","target":"Maersk","id":"50","attributes":{},"color":"rgb(223,137,255)","size":1.0},{"source":"DFDS Seaways","target":"DFDS","id":"43","attributes":{},"color":"rgb(115,192,0)","size":1.0},{"source":"DSB (railway company)","target":"DSBFirst","id":"3","attributes":{},"color":"rgb(76,70,62)","size":1.0},{"source":"Bilka","target":"Dansk Supermarked","id":"52","attributes":{},"color":"rgb(223,137,255)","size":1.0},{"source":"Tor Line","target":"Maersk","id":"60","attributes":{},"color":"rgb(169,164,127)","size":1.0},{"source":"Novo A/S","target":"NNIT","id":"82","attributes":{},"color":"rgb(255,136,5)","size":1.0},{"source":"Maersk","target":"Safmarine","id":"16","attributes":{},"color":"rgb(223,137,255)","size":1.0},{"source":"DSBFirst","target":"DSB (railway company)","id":"12","attributes":{},"color":"rgb(76,70,62)","size":1.0},{"source":"Maersk Drilling","target":"Maersk","id":"67","attributes":{},"color":"rgb(223,137,255)","size":1.0},{"source":"TraXion","target":"Privatbanen Sønderjylland","id":"85","attributes":{},"color":"rgb(211,179,176)","size":1.0},{"source":"Fællesforeningen for Danmarks Brugsforeninger","target":"Kvickly","id":"87","attributes":{},"color":"rgb(223,137,255)","size":1.0},{"source":"Jeudan","target":"William Demant","id":"34","attributes":{},"color":"rgb(0,196,255)","size":1.0},{"source":"Maersk","target":"Netto (store)","id":"17","attributes":{},"color":"rgb(223,137,255)","size":1.0},{"source":"Novo A/S","target":"Novozymes","id":"81","attributes":{},"color":"rgb(255,136,5)","size":1.0},{"source":"Stena Line","target":"DFDS Seaways","id":"72","attributes":{},"color":"rgb(115,192,0)","size":1.0},{"source":"Netto (store)","target":"Dansk Supermarked","id":"49","attributes":{},"color":"rgb(223,137,255)","size":1.0},{"source":"DFDS","target":"DFDS Seaways","id":"76","attributes":{},"color":"rgb(115,192,0)","size":1.0},{"source":"Vestas","target":"DONG Energy","id":"63","attributes":{},"color":"rgb(0,189,148)","size":1.0},{"source":"NNIT","target":"Arla Foods","id":"100","attributes":{},"color":"rgb(255,136,5)","size":1.0},{"source":"Maersk","target":"Maersk Drilling","id":"14","attributes":{},"color":"rgb(223,137,255)","size":1.0},{"source":"Tøj \u0026 Sko","target":"Bilka","id":"79","attributes":{},"color":"rgb(223,137,255)","size":1.0},{"source":"DFDS","target":"Tor Line","id":"75","attributes":{},"color":"rgb(115,192,0)","size":1.0},{"source":"A-Z (store)","target":"Bilka","id":"78","attributes":{},"color":"rgb(223,137,255)","size":1.0},{"source":"Maersk","target":"Salling (department store)","id":"15","attributes":{},"color":"rgb(223,137,255)","size":1.0},{"source":"Dansk Supermarked","target":"Føtex","id":"92","attributes":{},"color":"rgb(223,137,255)","size":1.0},{"source":"Tor Line","target":"DFDS Seaways","id":"59","attributes":{},"color":"rgb(115,192,0)","size":1.0},{"source":"Fakta","target":"Irma (supermarket)","id":"55","attributes":{},"color":"rgb(223,137,255)","size":1.0},{"source":"DSBFirst","target":"DSB Øresund","id":"11","attributes":{},"color":"rgb(76,70,62)","size":1.0},{"source":"Dansk Supermarked","target":"A-Z (store)","id":"95","attributes":{},"color":"rgb(223,137,255)","size":1.0},{"source":"Maersk Line","target":"Maersk","id":"42","attributes":{},"color":"rgb(223,137,255)","size":1.0},{"source":"Oticon","target":"William Demant","id":"8","attributes":{},"color":"rgb(0,196,255)","size":1.0},{"source":"Novo Nordisk","target":"Novozymes","id":"40","attributes":{},"color":"rgb(255,136,5)","size":1.0},{"source":"DSB (railway company)","target":"Banedanmark","id":"4","attributes":{},"color":"rgb(76,70,62)","size":1.0},{"source":"Maersk","target":"Føtex","id":"13","attributes":{},"color":"rgb(223,137,255)","size":1.0}]}